[
  {
    "StadiumID": 1,
    "Name": "Ralph Wilson Stadium",
    "City": "Orchard Park",
    "State": "NY",
    "Country": "USA",
    "Capacity": 73079,
    "PlayingSurface": "Artificial",
    "GeoLat": 42.773758,
    "GeoLong": -78.786837
  },
  {
    "StadiumID": 2,
    "Name": "Sun Life Stadium",
    "City": "Miami Gardens",
    "State": "FL",
    "Country": "USA",
    "Capacity": 76100,
    "PlayingSurface": "Grass",
    "GeoLat": 25.95774,
    "GeoLong": -80.238781
  },
  {
    "StadiumID": 3,
    "Name": "MetLife Stadium",
    "City": "East Rutherford",
    "State": "NJ",
    "Country": "USA",
    "Capacity": 82500,
    "PlayingSurface": "Artificial",
    "GeoLat": 40.813611,
    "GeoLong": -74.074444
  },
  {
    "StadiumID": 4,
    "Name": "Gillette Stadium",
    "City": "Foxborough",
    "State": "MA",
    "Country": "USA",
    "Capacity": 68756,
    "PlayingSurface": "Grass",
    "GeoLat": 42.090866,
    "GeoLong": -71.264244
  },
  {
    "StadiumID": 5,
    "Name": "Paul Brown Stadium",
    "City": "Cincinnati",
    "State": "OH",
    "Country": "USA",
    "Capacity": 65535,
    "PlayingSurface": "Artificial",
    "GeoLat": 39.095309,
    "GeoLong": -84.516003
  },
  {
    "StadiumID": 6,
    "Name": "FirstEnergy Stadium",
    "City": "Cleveland",
    "State": "OH",
    "Country": "USA",
    "Capacity": 71516,
    "PlayingSurface": "Artificial",
    "GeoLat": 41.505885,
    "GeoLong": -81.699458
  },
  {
    "StadiumID": 7,
    "Name": "M&T Bank Stadium",
    "City": "Baltimore",
    "State": "MD",
    "Country": "USA",
    "Capacity": 71008,
    "PlayingSurface": "Artificial",
    "GeoLat": 39.277985,
    "GeoLong": -76.622788
  },
  {
    "StadiumID": 8,
    "Name": "Heinz Field",
    "City": "Pittsburgh",
    "State": "PA",
    "Country": "USA",
    "Capacity": 65050,
    "PlayingSurface": "Grass",
    "GeoLat": 40.446751,
    "GeoLong": -80.015707
  },
  {
    "StadiumID": 9,
    "Name": "Lucas Oil Stadium",
    "City": "Indianapolis",
    "State": "IN",
    "Country": "USA",
    "Capacity": 67000,
    "PlayingSurface": "Dome",
    "GeoLat": 39.760056,
    "GeoLong": -86.163806
  },
  {
    "StadiumID": 10,
    "Name": "EverBank Field",
    "City": "Jacksonville",
    "State": "FL",
    "Country": "USA",
    "Capacity": 67246,
    "PlayingSurface": "Artificial",
    "GeoLat": 30.323813,
    "GeoLong": -81.637199
  },
  {
    "StadiumID": 11,
    "Name": "Reliant Stadium",
    "City": "Houston",
    "State": "TX",
    "Country": "USA",
    "Capacity": 71054,
    "PlayingSurface": "Dome",
    "GeoLat": 29.684543,
    "GeoLong": -95.410932
  },
  {
    "StadiumID": 12,
    "Name": "LP Field",
    "City": "Nashville",
    "State": "TN",
    "Country": "USA",
    "Capacity": 6914,
    "PlayingSurface": "Grass",
    "GeoLat": 36.166441,
    "GeoLong": -86.771253
  },
  {
    "StadiumID": 13,
    "Name": "Sports Authority Field at Mile High",
    "City": "Denver",
    "State": "CO",
    "Country": "USA",
    "Capacity": 76125,
    "PlayingSurface": "Grass",
    "GeoLat": 39.743936,
    "GeoLong": -105.020097
  },
  {
    "StadiumID": 14,
    "Name": "Qualcomm Stadium",
    "City": "San Diego",
    "State": "CA",
    "Country": "USA",
    "Capacity": 70561,
    "PlayingSurface": "Grass",
    "GeoLat": 32.783188,
    "GeoLong": -117.119439
  },
  {
    "StadiumID": 15,
    "Name": "Arrowhead Stadium",
    "City": "Kansas City",
    "State": "MO",
    "Country": "USA",
    "Capacity": 76416,
    "PlayingSurface": "Grass",
    "GeoLat": 39.049002,
    "GeoLong": -94.483864
  },
  {
    "StadiumID": 16,
    "Name": "O.co Coliseum",
    "City": "Oakland",
    "State": "CA",
    "Country": "USA",
    "Capacity": 53200,
    "PlayingSurface": "Grass",
    "GeoLat": 37.751613,
    "GeoLong": -122.200509
  },
  {
    "StadiumID": 17,
    "Name": "AT&T Stadium",
    "City": "Arlington",
    "State": "TX",
    "Country": "USA",
    "Capacity": 80000,
    "PlayingSurface": "Dome",
    "GeoLat": 32.747778,
    "GeoLong": -97.092778
  },
  {
    "StadiumID": 18,
    "Name": "Lincoln Financial Field",
    "City": "Philadelphia",
    "State": "PA",
    "Country": "USA",
    "Capacity": 68532,
    "PlayingSurface": "Grass",
    "GeoLat": 39.900771,
    "GeoLong": -75.167469
  },
  {
    "StadiumID": 19,
    "Name": "FedEx Field",
    "City": "Landover",
    "State": "MD",
    "Country": "USA",
    "Capacity": 85000,
    "PlayingSurface": "Grass",
    "GeoLat": 38.907652,
    "GeoLong": -76.864479
  },
  {
    "StadiumID": 20,
    "Name": "Soldier Field",
    "City": "Chicago",
    "State": "IL",
    "Country": "USA",
    "Capacity": 61500,
    "PlayingSurface": "Grass",
    "GeoLat": 41.86232,
    "GeoLong": -87.616699
  },
  {
    "StadiumID": 21,
    "Name": "Ford Field",
    "City": "Detroit",
    "State": "MI",
    "Country": "USA",
    "Capacity": 65000,
    "PlayingSurface": "Dome",
    "GeoLat": 42.340021,
    "GeoLong": -83.045777
  },
  {
    "StadiumID": 22,
    "Name": "Lambeau Field",
    "City": "Green Bay",
    "State": "WI",
    "Country": "USA",
    "Capacity": 80750,
    "PlayingSurface": "Grass",
    "GeoLat": 44.501389,
    "GeoLong": -88.061944
  },
  {
    "StadiumID": 23,
    "Name": "Mall of America Field",
    "City": "Minneapolis",
    "State": "MN",
    "Country": "US",
    "Capacity": 64111,
    "PlayingSurface": "Dome",
    "GeoLat": 44.976,
    "GeoLong": -93.225
  },
  {
    "StadiumID": 24,
    "Name": "Raymond James Stadium",
    "City": "Tampa Bay",
    "State": "FL",
    "Country": "USA",
    "Capacity": 65890,
    "PlayingSurface": "Grass",
    "GeoLat": 27.975967,
    "GeoLong": -82.50335
  },
  {
    "StadiumID": 25,
    "Name": "Georgia Dome",
    "City": "Atlanta",
    "State": "GA",
    "Country": "USA",
    "Capacity": 74228,
    "PlayingSurface": "Dome",
    "GeoLat": 33.757614,
    "GeoLong": -84.400972
  },
  {
    "StadiumID": 26,
    "Name": "Bank of America Stadium",
    "City": "Charlotte",
    "State": "NC",
    "Country": "USA",
    "Capacity": 73778,
    "PlayingSurface": "Grass",
    "GeoLat": 35.225808,
    "GeoLong": -80.852861
  },
  {
    "StadiumID": 27,
    "Name": "Mercedes-Benz Superdome",
    "City": "New Orleans",
    "State": "LA",
    "Country": "USA",
    "Capacity": 73208,
    "PlayingSurface": "Dome",
    "GeoLat": 29.950931,
    "GeoLong": -90.081364
  },
  {
    "StadiumID": 28,
    "Name": "Candlestick Park",
    "City": "San Francisco",
    "State": "CA",
    "Country": "US",
    "Capacity": 70207,
    "PlayingSurface": "Grass",
    "GeoLat": 37.404108,
    "GeoLong": -121.970274
  },
  {
    "StadiumID": 29,
    "Name": "University of Phoenix Stadium",
    "City": "Glendale",
    "State": "AZ",
    "Country": "USA",
    "Capacity": 63400,
    "PlayingSurface": "Dome",
    "GeoLat": 33.527558,
    "GeoLong": -112.263036
  },
  {
    "StadiumID": 30,
    "Name": "Edward Jones Dome",
    "City": "St. Louis",
    "State": "MO",
    "Country": "USA",
    "Capacity": 66000,
    "PlayingSurface": "Dome",
    "GeoLat": 38.632975,
    "GeoLong": -90.188547
  },
  {
    "StadiumID": 31,
    "Name": "CenturyLink Field",
    "City": "Seattle",
    "State": "WA",
    "Country": "USA",
    "Capacity": 67000,
    "PlayingSurface": "Artificial",
    "GeoLat": 47.595153,
    "GeoLong": -122.331625
  },
  {
    "StadiumID": 33,
    "Name": "Wembley Stadium",
    "City": "London",
    "State": null,
    "Country": "UK",
    "Capacity": 86000,
    "PlayingSurface": "Dome",
    "GeoLat": 39.049002,
    "GeoLong": -94.483864
  },
  {
    "StadiumID": 34,
    "Name": "Rogers Centre",
    "City": "Toronto",
    "State": null,
    "Country": "CA",
    "Capacity": 86000,
    "PlayingSurface": "Dome",
    "GeoLat": null,
    "GeoLong": null
  },
  {
    "StadiumID": 35,
    "Name": "Fawcett Stadium",
    "City": "Canton",
    "State": "OH",
    "Country": "USA",
    "Capacity": 22375,
    "PlayingSurface": "Artificial",
    "GeoLat": null,
    "GeoLong": null
  },
  {
    "StadiumID": 36,
    "Name": "TCF Bank Stadium",
    "City": "Minneapolis",
    "State": "MN",
    "Country": "USA",
    "Capacity": 50805,
    "PlayingSurface": null,
    "GeoLat": 44.976,
    "GeoLong": -93.225
  },
  {
    "StadiumID": 37,
    "Name": "Levi's Stadium",
    "City": "Santa Clara",
    "State": "CA",
    "Country": "USA",
    "Capacity": 68500,
    "PlayingSurface": null,
    "GeoLat": 37.404108,
    "GeoLong": -121.970274
  },
  {
    "StadiumID": 38,
    "Name": "Los Angeles Memorial Coliseum",
    "City": "Los Angeles",
    "State": "CA",
    "Country": "USA",
    "Capacity": 93607,
    "PlayingSurface": "Grass",
    "GeoLat": 34.014167,
    "GeoLong": -118.287778
  }
]

